{
"type": "FeatureCollection",
"name": "history_4",
"features": [
{ "type": "Feature", "properties": { "Name": "Бібліотека", "Address": "Україна, Херсонська область, м.Херсон, Торгова вул., 24", "Year": "1897р.", "Changes": "", "Category": "Архітектура", "Status": "Національного значення" }, "geometry": { "type": "Point", "coordinates": [ 32.6098236, 46.6321377 ] } },
{ "type": "Feature", "properties": { "Name": "Святодухівський собор та дзвіниця", "Address": "Україна, Херсонська область, м.Херсон, Преображенська вул., 36", "Year": "1836р.", "Changes": "добудова між 1914 і 1918 рр.", "Category": "Архітектура", "Status": "Національного значення" }, "geometry": { "type": "Point", "coordinates": [ 32.6062671, 46.6345093 ] } },
{ "type": "Feature", "properties": { "Name": "Миколаївська церква", "Address": "Україна, Херсонська область, м.Херсон, Мостова вул., 31", "Year": "Перша половина  XIX  ст.", "Changes": "1902 р. – добудова", "Category": "Архітектура", "Status": "Національного значення" }, "geometry": { "type": "Point", "coordinates": [ 32.5889704, 46.6355842 ] } },
{ "type": "Feature", "properties": { "Name": "Житловий будинок", "Address": "Україна, Херсонська область, м.Херсон, Старообрядницька вул., 14", "Year": "Першачверть  XIX  ст.", "Changes": "", "Category": "Архітектура", "Status": "Національного значення" }, "geometry": { "type": "Point", "coordinates": [ 32.6109443, 46.6331257 ] } },
{ "type": "Feature", "properties": { "Name": "Житловий будинок", "Address": "Україна, Херсонська область, м.Херсон, Старообрядницька вул., 23", "Year": "Середина  XIX  ст.", "Changes": "", "Category": "Архітектура", "Status": "Національного значення" }, "geometry": { "type": "Point", "coordinates": [ 32.6101345, 46.6313865 ] } },
{ "type": "Feature", "properties": { "Name": "Житловий будинок", "Address": "Україна, Херсонська область, м.Херсон, Старообрядницька вул., 36", "Year": "Кінець XVIII ст.", "Changes": "", "Category": "Архітектура", "Status": "Національного значення" }, "geometry": { "type": "Point", "coordinates": [ 32.6061019, 46.6313915 ] } },
{ "type": "Feature", "properties": { "Name": "Арсенал", "Address": "Україна, Херсонська область, м.Херсон, Перекопська вул., 8-10", "Year": "1784р.", "Changes": "1819 р.-перебудова", "Category": "Архітектура", "Status": "Національного значення" }, "geometry": { "type": "Point", "coordinates": [ 32.6264433, 46.637407499999988 ] } },
{ "type": "Feature", "properties": { "Name": "Очаківська брама фортеці (Південна)", "Address": "Україна, Херсонська область, м.Херсон, Перекопська вул., 13", "Year": "XVIII ст.", "Changes": "", "Category": "Архітектура та Історія", "Status": "Місцевого значення" }, "geometry": { "type": "Point", "coordinates": [ 32.6253907, 46.6389429 ] } },
{ "type": "Feature", "properties": { "Name": "Пам'ятник Ф.Ф.Ушакову", "Address": "Україна, Херсонська область, м.Херсон, Ушакова пр-т.", "Year": "1957р.", "Changes": "1970 р. - реставрація", "Category": "Монументальне мистецтво", "Status": "Національного значення" }, "geometry": { "type": "Point", "coordinates": [ 32.6131578, 46.6419303 ] } },
{ "type": "Feature", "properties": { "Name": "Лікарня. Будинок колишньої Херсонської губернської лікарні", "Address": "Україна, Херсонська область, м.Херсон, Ушакова пр-т., 67", "Year": "1840-ірр.", "Changes": "", "Category": "Архітектура та Історія", "Status": "Місцевого значення" }, "geometry": { "type": "Point", "coordinates": [ 32.6096803, 46.6469066 ] } },
{ "type": "Feature", "properties": { "Name": "Резиденція губернатора Будинок, в якому знаходилася перша Рада робітничих та солдатських депутатів м. Херсона", "Address": "Україна, Херсонська область, м.Херсон, Петра Калнишевського вул., 2", "Year": "1915р.-1917р.", "Changes": "", "Category": "Архітектура та Історія", "Status": "Місцевого значення" }, "geometry": { "type": "Point", "coordinates": [ 32.6224023, 46.636953 ] } },
{ "type": "Feature", "properties": { "Name": "Житловий будинок (Будинок Катасанова).", "Address": "Україна, Херсонська область, м.Херсон, Бородицька вул., 1", "Year": "1820р.", "Changes": "", "Category": "Архітектура", "Status": "Національного значення" }, "geometry": { "type": "Point", "coordinates": [ 32.6193481, 46.6293477 ] } },
{ "type": "Feature", "properties": { "Name": "Греко-Софійська церква", "Address": "Україна, Херсонська область, м.Херсон, Бородицька вул., 11", "Year": "1780р.", "Changes": "1808 р. перебудова", "Category": "Архітектура та Історія", "Status": "Національного значення" }, "geometry": { "type": "Point", "coordinates": [ 32.6171312, 46.628909899999989 ] } },
{ "type": "Feature", "properties": { "Name": "Складська споруда (Церква Різдва Богородиці )", "Address": "Україна, Херсонська область, м.Херсон, Бородицька вул., 27", "Year": "Кінець XVIII ст.", "Changes": "1792 р.; 1818 р.; 1885 р.-добудови; 2002 р. – перебудова", "Category": "Архітектура", "Status": "Національного значення" }, "geometry": { "type": "Point", "coordinates": [ 32.6121562, 46.6277968 ] } },
{ "type": "Feature", "properties": { "Name": "Пам'ятний знак на честь моряків Дунайської флотилії", "Address": "Україна, Херсонська область, м.Херсон, 2-й Слобідський пров.", "Year": "1941–1945рр.", "Changes": "", "Category": "Історія", "Status": "Місцевого значення" }, "geometry": { "type": "Point", "coordinates": [ 32.6527434, 46.6528809 ] } },
{ "type": "Feature", "properties": { "Name": "Житловий будинок (мур.)", "Address": "Україна, Херсонська область, м.Херсон, Пилипа Орлика вул., 8", "Year": "Початок ХХ ст.", "Changes": "", "Category": "Архітектура", "Status": "Місцевого значення" }, "geometry": { "type": "Point", "coordinates": [ 32.615443, 46.635726899999987 ] } },
{ "type": "Feature", "properties": { "Name": "Житловий будинок (мур.)", "Address": "Україна, Херсонська область, м.Херсон, Пилипа Орлика вул., 10", "Year": "1911р.", "Changes": "", "Category": "Архітектура", "Status": "Місцевого значення" }, "geometry": { "type": "Point", "coordinates": [ 32.6145258, 46.635494 ] } },
{ "type": "Feature", "properties": { "Name": "Будинок, в якому мешкав Коста Хетагуров", "Address": "Україна, Херсонська область, м.Херсон, Пилипа Орлика вул., 15", "Year": "1900р.", "Changes": "", "Category": "Історія", "Status": "Місцевого значення" }, "geometry": { "type": "Point", "coordinates": [ 32.611598, 46.63437 ] } },
{ "type": "Feature", "properties": { "Name": "Будинок, в якому розміщувався штаб червоногвардійців", "Address": "Україна, Херсонська область, м.Херсон, Пилипа Орлика вул., 26", "Year": "1918р.", "Changes": "", "Category": "Історія", "Status": "Місцевого значення" }, "geometry": { "type": "Point", "coordinates": [ 32.6114415, 46.6346494 ] } },
{ "type": "Feature", "properties": { "Name": "Житловий будинок (будинок братів С. та М. Камінських)", "Address": "Україна, Херсонська область, м.Херсон, Пилипа Орлика вул., 30", "Year": "1910р.", "Changes": "", "Category": "Архітектура", "Status": "Місцевого значення" }, "geometry": { "type": "Point", "coordinates": [ 32.6097536, 46.6343262 ] } },
{ "type": "Feature", "properties": { "Name": "Житловий будинок (мур.)", "Address": "Україна, Херсонська область, м.Херсон, Торгова вул., 29", "Year": "Початок ХХ ст.", "Changes": "", "Category": "Архітектура", "Status": "Місцевого значення" }, "geometry": { "type": "Point", "coordinates": [ 32.6097883, 46.6312868 ] } },
{ "type": "Feature", "properties": { "Name": "Житловий будинок (мур.)", "Address": "Україна, Херсонська область, м.Херсон, Торгова вул., 31", "Year": "Середина ХІХ ст.", "Changes": "", "Category": "Архітектура", "Status": "Місцевого значення" }, "geometry": { "type": "Point", "coordinates": [ 32.6082325, 46.634172199999988 ] } },
{ "type": "Feature", "properties": { "Name": "Меморіальна дошка на честь заслуженого лікаря О.С. Лучанського", "Address": "Україна, Херсонська область, м.Херсон, Провулок Інженера Корсакова вул., 167", "Year": "", "Changes": "1993 р. - дата встановлення дошки", "Category": "Історія", "Status": "Місцевого значення" }, "geometry": { "type": "Point", "coordinates": [ 32.6188971, 46.6424016 ] } },
{ "type": "Feature", "properties": { "Name": "Пам’ятний знак на честь 295 стрілецької дивізії", "Address": "Україна, Херсонська область, м.Херсон, 295 Стрілецької дивізії вул.", "Year": "1941–1945рр.", "Changes": "", "Category": "Історія", "Status": "Місцевого значення" }, "geometry": { "type": "Point", "coordinates": [ 32.6167889, 46.6429123 ] } },
{ "type": "Feature", "properties": { "Name": "Комерційне училище (мур.)", "Address": "Україна, Херсонська область, м.Херсон, Белінського вул., 3", "Year": "1908р.", "Changes": "", "Category": "Архітектура", "Status": "Місцевого значення" }, "geometry": { "type": "Point", "coordinates": [ 32.6137941, 46.638188500000012 ] } },
{ "type": "Feature", "properties": { "Name": "Лікарня Російського товариства Червоного хреста (мур.)", "Address": "Україна, Херсонська область, м.Херсон, Белінського вул., 6", "Year": "Кінець ХІХ ст.", "Changes": "", "Category": "Архітектура", "Status": "Місцевого значення" }, "geometry": { "type": "Point", "coordinates": [ 32.6129631, 46.6383068 ] } },
{ "type": "Feature", "properties": { "Name": "Брама (мур.)", "Address": "Україна, Херсонська область, м.Херсон, Белінського вул., 26", "Year": "1865р.", "Changes": "", "Category": "Архітектура", "Status": "Місцевого значення" }, "geometry": { "type": "Point", "coordinates": [ 32.604781, 46.636608099999989 ] } },
{ "type": "Feature", "properties": { "Name": "Пам’ятник Б. Хмельницькому", "Address": "Україна, Херсонська область, м.Херсон, Полковника Кедровського вул., 52", "Year": "1954р.", "Changes": "", "Category": "Монументальне мистецтво", "Status": "Місцевого значення" }, "geometry": { "type": "Point", "coordinates": [ 32.5908939, 46.6706615 ] } },
{ "type": "Feature", "properties": { "Name": "Меморіальна дошка на честь командира партизанського загону О.Ю. Гірського", "Address": "Україна, Херсонська область, м.Херсон, Гірського вул.2, 57", "Year": "1941–1945рр.", "Changes": "1977 р. – дата встановлення дошки", "Category": "Історія", "Status": "Місцевого значення" }, "geometry": { "type": "Point", "coordinates": [ 32.6105527, 46.6421933 ] } },
{ "type": "Feature", "properties": { "Name": "Житловий будинок (мур.)", "Address": "Україна, Херсонська область, м.Херсон, Гоголя вул., 13", "Year": "Середина ХХ ст.", "Changes": "1995 р – добудова 3-го поверху", "Category": "Архітектура", "Status": "Місцевого значення" }, "geometry": { "type": "Point", "coordinates": [ 32.615641, 46.6347172 ] } },
{ "type": "Feature", "properties": { "Name": "Училище, в якому займались Герої Радянського Союзу Л.Л.Вінер і І.М. Бережний", "Address": "Україна, Херсонська область, м.Херсон, Гоголя вул., 14", "Year": "1941-1945рр.", "Changes": "", "Category": "Історія", "Status": "Місцевого значення" }, "geometry": { "type": "Point", "coordinates": [ 32.6152595, 46.6360379 ] } },
{ "type": "Feature", "properties": { "Name": "Житловий будинок (мур.)", "Address": "Україна, Херсонська область, м.Херсон, Гоголя вул., 16", "Year": "Початок ХХ ст.", "Changes": "", "Category": "Архітектура", "Status": "Місцевого значення" }, "geometry": { "type": "Point", "coordinates": [ 32.6147745, 46.636255899999988 ] } },
{ "type": "Feature", "properties": { "Name": "Будинок, в якому народився та мешкав письменник Б. Лавреньов", "Address": "Україна, Херсонська область, м.Херсон, Театральна вул., 1", "Year": "1891р.", "Changes": "", "Category": "Історія", "Status": "Місцевого значення" }, "geometry": { "type": "Point", "coordinates": [ 32.6166514, 46.63501560000001 ] } },
{ "type": "Feature", "properties": { "Name": "Природо-історичний музей (мур.). Будинок музею, в якому працював вчений-біолог Й.К. Пачоський", "Address": "Україна, Херсонська область, м.Херсон, Театральна вул., 5", "Year": "1905р.Початок ХХ ст.", "Changes": "", "Category": "Архітектура та Історія", "Status": "Місцевого значення" }, "geometry": { "type": "Point", "coordinates": [ 32.6147171, 46.6345075 ] } },
{ "type": "Feature", "properties": { "Name": "Житловий будинок (мур.)", "Address": "Україна, Херсонська область, м.Херсон, Театральна вул., 9", "Year": "1910р.", "Changes": "", "Category": "Архітектура", "Status": "Місцевого значення" }, "geometry": { "type": "Point", "coordinates": [ 32.6118127, 46.6336896 ] } },
{ "type": "Feature", "properties": { "Name": "Житловий будинок (мур.)", "Address": "Україна, Херсонська область, м.Херсон, Театральна вул., 13", "Year": "1910р.", "Changes": "", "Category": "Архітектура", "Status": "Місцевого значення" }, "geometry": { "type": "Point", "coordinates": [ 32.6111968, 46.6335499 ] } },
{ "type": "Feature", "properties": { "Name": "Кінотеатр “Ампір”(мур.)", "Address": "Україна, Херсонська область, м.Херсон, Театральна вул., 17", "Year": "Початок ХХ ст.", "Changes": "", "Category": "Архітектура", "Status": "Місцевого значення" }, "geometry": { "type": "Point", "coordinates": [ 32.6095557, 46.6330645 ] } },
{ "type": "Feature", "properties": { "Name": "Адміністративний будинок", "Address": "Україна, Херсонська область, м.Херсон, Театральна вул., 18", "Year": "1910–1914рр.", "Changes": "", "Category": "Архітектура", "Status": "Місцевого значення" }, "geometry": { "type": "Point", "coordinates": [ 32.6121416, 46.634173399999987 ] } },
{ "type": "Feature", "properties": { "Name": "Житловий будинок (мур.) Будинок, в якому мешкав Коста Хетагуров", "Address": "Україна, Херсонська область, м.Херсон, Театральна вул., 19", "Year": "Друга половина ХІХ ст.1900р.", "Changes": "", "Category": "Архітектура та Історія", "Status": "Місцевого значення" }, "geometry": { "type": "Point", "coordinates": [ 32.6088634, 46.632865 ] } },
{ "type": "Feature", "properties": { "Name": "Житловий будинок (мур.)", "Address": "Україна, Херсонська область, м.Херсон, Театральна вул., 20", "Year": "Середина ХІХ ст.", "Changes": "", "Category": "Архітектура", "Status": "Місцевого значення" }, "geometry": { "type": "Point", "coordinates": [ 32.6117055, 46.6340604 ] } },
{ "type": "Feature", "properties": { "Name": "Житловий будинок (мур.)", "Address": "Україна, Херсонська область, м.Херсон, Театральна вул., 22", "Year": "Середина ХІХ ст.", "Changes": "", "Category": "Архітектура", "Status": "Місцевого значення" }, "geometry": { "type": "Point", "coordinates": [ 32.610577, 46.633747799999981 ] } },
{ "type": "Feature", "properties": { "Name": "Житловий будинок (мур.)", "Address": "Україна, Херсонська область, м.Херсон, Театральна вул., 26", "Year": "1910р.", "Changes": "", "Category": "Архітектура", "Status": "Місцевого значення" }, "geometry": { "type": "Point", "coordinates": [ 32.6098396, 46.6335416 ] } },
{ "type": "Feature", "properties": { "Name": "Синагога \"Хабад\" (мур)", "Address": "Україна, Херсонська область, м.Херсон, Театральна вул., 27", "Year": "1910-ті рр.", "Changes": "", "Category": "Архітектура", "Status": "Місцевого значення" }, "geometry": { "type": "Point", "coordinates": [ 32.6070896, 46.63219070000001 ] } },
{ "type": "Feature", "properties": { "Name": "Житловий будинок (мур.)", "Address": "Україна, Херсонська область, м.Херсон, Театральна вул., 28", "Year": "1890-ті рр.", "Changes": "", "Category": "Архітектура", "Status": "Місцевого значення" }, "geometry": { "type": "Point", "coordinates": [ 32.6094935, 46.6334419 ] } },
{ "type": "Feature", "properties": { "Name": "Житловий будинок (мур.)", "Address": "Україна, Херсонська область, м.Херсон, Театральна вул., 32", "Year": "1900-ті рр.", "Changes": "", "Category": "Архітектура", "Status": "Місцевого значення" }, "geometry": { "type": "Point", "coordinates": [ 32.6083967, 46.6331823 ] } },
{ "type": "Feature", "properties": { "Name": "Будинок, де у 1902 році була випробувана перша на Україні радіостанція", "Address": "Україна, Херсонська область, м.Херсон, Театральна вул., 56", "Year": "1902р.", "Changes": "", "Category": "Історія", "Status": "Місцевого значення" }, "geometry": { "type": "Point", "coordinates": [ 32.6019392, 46.631522 ] } },
{ "type": "Feature", "properties": { "Name": "Житловий будинок (мур.)", "Address": "Україна, Херсонська область, м.Херсон, Готельний пров., 2", "Year": "Початок ХХ ст.", "Changes": "", "Category": "Архітектура", "Status": "Місцевого значення" }, "geometry": { "type": "Point", "coordinates": [ 32.613824, 46.6360876 ] } },
{ "type": "Feature", "properties": { "Name": "Житловий будинок (мур.)", "Address": "Україна, Херсонська область, м.Херсон, Готельний пров., 7", "Year": "1890-ті рр.", "Changes": "", "Category": "Архітектура", "Status": "Місцевого значення" }, "geometry": { "type": "Point", "coordinates": [ 32.6133168, 46.6354595 ] } },
{ "type": "Feature", "properties": { "Name": "Житловий будинок (мур.)", "Address": "Україна, Херсонська область, м.Херсон, Готельний пров., 9", "Year": "1910-ті рр.", "Changes": "", "Category": "Архітектура", "Status": "Місцевого значення" }, "geometry": { "type": "Point", "coordinates": [ 32.6129573, 46.6354061 ] } },
{ "type": "Feature", "properties": { "Name": "Житловий будинок (мур.)", "Address": "Україна, Херсонська область, м.Херсон, Преображенська вул., 12", "Year": "Кінець ХІХ ст.", "Changes": "", "Category": "Архітектура", "Status": "Місцевого значення" }, "geometry": { "type": "Point", "coordinates": [ 32.6132155, 46.636459400000021 ] } },
{ "type": "Feature", "properties": { "Name": "Житловий будинок (мур.)", "Address": "Україна, Херсонська область, м.Херсон, Преображенська вул., 14", "Year": "Перша половина ХІХ ст.", "Changes": "", "Category": "Архітектура", "Status": "Місцевого значення" }, "geometry": { "type": "Point", "coordinates": [ 32.6128311, 46.63632980000002 ] } },
{ "type": "Feature", "properties": { "Name": "Будинок колишньої повітової земської управи", "Address": "Україна, Херсонська область, м.Херсон, Преображенська вул., 20", "Year": "1865-1917рр.", "Changes": "1950-ті рр. - перебудова", "Category": "Історія", "Status": "Місцевого значення" }, "geometry": { "type": "Point", "coordinates": [ 32.6114328, 46.6360154 ] } },
{ "type": "Feature", "properties": { "Name": "Житловий будинок (мур.)", "Address": "Україна, Херсонська область, м.Херсон, Преображенська вул., 25", "Year": "Друга половина ХІХ-початок ХХ ст.", "Changes": "", "Category": "Архітектура", "Status": "Місцевого значення" }, "geometry": { "type": "Point", "coordinates": [ 32.6116547, 46.635696 ] } },
{ "type": "Feature", "properties": { "Name": "Дуб звичайний \"Дуб черешчатий\"", "Address": "Україна, Херсонська область, м.Херсон, Преображенська вул., 31", "Year": "1890-ті рр.", "Changes": "", "Category": "Природи", "Status": "Місцевого значення" }, "geometry": { "type": "Point", "coordinates": [ 32.6107443, 46.635439899999966 ] } },
{ "type": "Feature", "properties": { "Name": "Житловий будинок (мур.)", "Address": "Україна, Херсонська область, м.Херсон, Преображенська вул., 43-45", "Year": "1900-1910рр.", "Changes": "", "Category": "Архітектура", "Status": "Місцевого значення" }, "geometry": { "type": "Point", "coordinates": [ 32.6087996, 46.6347886 ] } },
{ "type": "Feature", "properties": { "Name": "Будинок – колишня гімназія, в якій навчались Є.В. Тарле і Б.О. Лавреньов.", "Address": "Україна, Херсонська область, м.Херсон, Віктора Гошкевича вул., 2", "Year": "1901-1909рр.", "Changes": "", "Category": "Історія", "Status": "Місцевого значення" }, "geometry": { "type": "Point", "coordinates": [ 32.617997, 46.6312285 ] } },
{ "type": "Feature", "properties": { "Name": "Російський банк для зовнішньої торгівлі (мур.) (Будинок Фальц-Фейнів)", "Address": "Україна, Херсонська область, м.Херсон, Віктора Гошкевича вул., 15", "Year": "1890-ті рр.", "Changes": "", "Category": "Архітектура", "Status": "Місцевого значення" }, "geometry": { "type": "Point", "coordinates": [ 32.6154046, 46.630170799999988 ] } },
{ "type": "Feature", "properties": { "Name": "Житловий будинок (мур.)", "Address": "Україна, Херсонська область, м.Херсон, Віктора Гошкевича вул., 29", "Year": "1858-1900рр.", "Changes": "", "Category": "Архітектура", "Status": "Місцевого значення" }, "geometry": { "type": "Point", "coordinates": [ 32.6136058, 46.6292684 ] } },
{ "type": "Feature", "properties": { "Name": "Гімназія Марченко (мур.)", "Address": "Україна, Херсонська область, м.Херсон, Дори Любарської пров., 19", "Year": "Початок ХХ ст.", "Changes": "", "Category": "Архітектура", "Status": "Місцевого значення" }, "geometry": { "type": "Point", "coordinates": [ 32.6157795, 46.6329054 ] } },
{ "type": "Feature", "properties": { "Name": "Стрітенська церква (мур.)", "Address": "Україна, Херсонська область, м.Херсон, Василя Стуса вул., 45", "Year": "Кінець ХІХ ст.", "Changes": "", "Category": "Архітектура", "Status": "Місцевого значення" }, "geometry": { "type": "Point", "coordinates": [ 32.5793989, 46.6394302 ] } },
{ "type": "Feature", "properties": { "Name": "Житловий будинок (мур.)", "Address": "Україна, Херсонська область, м.Херсон, Рішельєвська вул., 12", "Year": "Початок ХХ ст.", "Changes": "", "Category": "Архітектура", "Status": "Місцевого значення" }, "geometry": { "type": "Point", "coordinates": [ 32.6121463, 46.6306825 ] } },
{ "type": "Feature", "properties": { "Name": "Меморіальна дошка жертвам фашизму", "Address": "Україна, Херсонська область, м.Херсон, Рішельєвська вул., 13", "Year": "1941–1945рр.", "Changes": "", "Category": "Історія", "Status": "Місцевого значення" }, "geometry": { "type": "Point", "coordinates": [ 32.6127156, 46.6289429 ] } },
{ "type": "Feature", "properties": { "Name": "Житловий будинок (мур.)", "Address": "Україна, Херсонська область, м.Херсон, Рішельєвська вул., 36", "Year": "1910-ті рр.", "Changes": "", "Category": "Архітектура", "Status": "Місцевого значення" }, "geometry": { "type": "Point", "coordinates": [ 32.6092243, 46.6369027 ] } },
{ "type": "Feature", "properties": { "Name": "Житловий будинок (мур.)", "Address": "Україна, Херсонська область, м.Херсон, Рішельєвська вул., 39", "Year": "Початок ХХ ст.", "Changes": "", "Category": "Архітектура", "Status": "Місцевого значення" }, "geometry": { "type": "Point", "coordinates": [ 32.6088509, 46.635726299999988 ] } },
{ "type": "Feature", "properties": { "Name": "Житловий будинок (мур.)", "Address": "Україна, Херсонська область, м.Херсон, Рішельєвська вул., 45", "Year": "1910-ті рр.", "Changes": "", "Category": "Архітектура", "Status": "Місцевого значення" }, "geometry": { "type": "Point", "coordinates": [ 32.6085159, 46.6365916 ] } },
{ "type": "Feature", "properties": { "Name": "Братська могила жертв фашизму", "Address": "Україна, Херсонська область, м.Херсон, Зеленівка смт., Дніпровський р-н., північно-східна межа", "Year": "1941р.", "Changes": "", "Category": "Історія", "Status": "Місцевого значення" }, "geometry": { "type": "Point", "coordinates": [ 32.6341002, 46.6507949 ] } },
{ "type": "Feature", "properties": { "Name": "Яхтклуб (мур.)", "Address": "Україна, Херсонська область, м.Херсон, Карантинний острів", "Year": "1883р.", "Changes": "", "Category": "Архітектура", "Status": "Місцевого значення" }, "geometry": { "type": "Point", "coordinates": [ 32.5752422, 46.5982196 ] } },
{ "type": "Feature", "properties": { "Name": "Меморіальна стела на честь воїнів-портовиків, що загинули в роки ВВВ", "Address": "Україна, Херсонська область, м.Херсон, Потьомкінська вул. ріг Спартаківського пров.", "Year": "1941-1945рр.", "Changes": "", "Category": "Історія", "Status": "Місцевого значення" }, "geometry": { "type": "Point", "coordinates": [ 32.6099414, 46.6399424 ] } },
{ "type": "Feature", "properties": { "Name": "Житловий будинок Лобрі (мур.). Будинок, в якому у 1919 році знаходився ревком, виконком Ради робочих депутатів, Херсонський комітет КП(б)У.", "Address": "Україна, Херсонська область, м.Херсон, Потьомкінська вул., 20", "Year": "Кінець ХІХ ст.1919р", "Changes": "", "Category": "Архітектура та Історія", "Status": "Місцевого значення" }, "geometry": { "type": "Point", "coordinates": [ 32.6142195, 46.633073799999984 ] } },
{ "type": "Feature", "properties": { "Name": "Житловий будинок (готель \"Берлін\"). Будинок, в якому розміщувався підпільний комітет більшовиків по боротьбі з австро-німецькими окупантам", "Address": "Україна, Херсонська область, м.Херсон, Потьомкінська вул., 26", "Year": "1910-ті рр.1918р.", "Changes": "", "Category": "Архітектура та Історія", "Status": "Місцевого значення" }, "geometry": { "type": "Point", "coordinates": [ 32.6130378, 46.6351281 ] } },
{ "type": "Feature", "properties": { "Name": "Житловий будинок (мур.)", "Address": "Україна, Херсонська область, м.Херсон, Потьомкінська вул., 30", "Year": "1950-ті рр.", "Changes": "", "Category": "Архітектура", "Status": "Місцевого значення" }, "geometry": { "type": "Point", "coordinates": [ 32.6126969, 46.635804899999982 ] } },
{ "type": "Feature", "properties": { "Name": "Пам’ятник працівникам заводу, які загинули в роки ВВВ", "Address": "Україна, Херсонська область, м.Херсон, Вячеслава Чорновола шосе", "Year": "1941-1945рр.", "Changes": "1965 р. – встановлено пам’ятник", "Category": "Історія", "Status": "Місцевого значення" }, "geometry": { "type": "Point", "coordinates": [ 32.6709135, 46.6714596 ] } },
{ "type": "Feature", "properties": { "Name": "Житловий будинок (мур.)", "Address": "Україна, Херсонська область, м.Херсон, Лютеранська вул., 4", "Year": "Початок ХХ ст.", "Changes": "", "Category": "Архітектура", "Status": "Місцевого значення" }, "geometry": { "type": "Point", "coordinates": [ 32.620352, 46.6333384 ] } },
{ "type": "Feature", "properties": { "Name": "Будинок голови міської думи (мур.)", "Address": "Україна, Херсонська область, м.Херсон, Лютеранська вул., 18", "Year": "Початок ХХ ст.", "Changes": "", "Category": "Архітектура", "Status": "Місцевого значення" }, "geometry": { "type": "Point", "coordinates": [ 32.622283, 46.6337941 ] } },
{ "type": "Feature", "properties": { "Name": "Комплекс споруд лікакрні Тропіних", "Address": "Україна, Херсонська область, м.Херсон, Комарова вул., 2", "Year": "1914р.", "Changes": "", "Category": "", "Status": "Місцевого значення" }, "geometry": { "type": "Point", "coordinates": [ 32.601591, 46.647638400000019 ] } },
{ "type": "Feature", "properties": { "Name": "Житловий будинок (будинок Лайера)", "Address": "Україна, Херсонська область, м.Херсон, Старообрядницька вул., 5", "Year": "Кінець ХІХ ст.", "Changes": "", "Category": "Архітектура", "Status": "Місцевого значення" }, "geometry": { "type": "Point", "coordinates": [ 32.6152899, 46.6333361 ] } },
{ "type": "Feature", "properties": { "Name": "Адміністративний будинок (мур.)", "Address": "Україна, Херсонська область, м.Херсон, Старообрядницька вул., 10", "Year": "1910-ті рр.", "Changes": "", "Category": "Архітектура", "Status": "Місцевого значення" }, "geometry": { "type": "Point", "coordinates": [ 32.6142381, 46.6332212 ] } },
{ "type": "Feature", "properties": { "Name": "Будинок, в якому знаходився штаб бойової дільниці по боротьбі з денікінцями", "Address": "Україна, Херсонська область, м.Херсон, Старообрядницька вул., 13", "Year": "1918-1920рр.", "Changes": "", "Category": "Історія", "Status": "Місцевого значення" }, "geometry": { "type": "Point", "coordinates": [ 32.6127308, 46.6321346 ] } },
{ "type": "Feature", "properties": { "Name": "Житловий будинок (мур.)", "Address": "Україна, Херсонська область, м.Херсон, Старообрядницька вул., 18", "Year": "Початок ХХ ст.", "Changes": "", "Category": "Архітектура", "Status": "Місцевого значення" }, "geometry": { "type": "Point", "coordinates": [ 32.6097327, 46.6327766 ] } },
{ "type": "Feature", "properties": { "Name": "Житловий будинок (мур.)", "Address": "Україна, Херсонська область, м.Херсон, Старообрядницька вул., 20", "Year": "Початок ХХ ст.", "Changes": "", "Category": "Архітектура", "Status": "Місцевого значення" }, "geometry": { "type": "Point", "coordinates": [ 32.6093798, 46.6327001 ] } },
{ "type": "Feature", "properties": { "Name": "Адміністративний будинок (мур.)", "Address": "Україна, Херсонська область, м.Херсон, Старообрядницька вул., 21", "Year": "1910-ті рр.", "Changes": "", "Category": "Архітектура", "Status": "Місцевого значення" }, "geometry": { "type": "Point", "coordinates": [ 32.6113498, 46.6313979 ] } },
{ "type": "Feature", "properties": { "Name": "Гімназія (мур.) (Будинок Лівшиця)", "Address": "Україна, Херсонська область, м.Херсон, Старообрядницька вул., 22", "Year": "Середина ХІХ ст.", "Changes": "", "Category": "Архітектура", "Status": "Місцевого значення" }, "geometry": { "type": "Point", "coordinates": [ 32.6092576, 46.6321503 ] } },
{ "type": "Feature", "properties": { "Name": "Будинок, в якому жив художник Ю.Г. Феглер", "Address": "Україна, Херсонська область, м.Херсон, Старообрядницька вул., 24", "Year": "Початок ХХ ст.", "Changes": "", "Category": "Історія", "Status": "Місцевого значення" }, "geometry": { "type": "Point", "coordinates": [ 32.6089563, 46.6320572 ] } },
{ "type": "Feature", "properties": { "Name": "Будинок, в якому проводили агітаційну роботу комуністи та комсомольці в умовах підпілля", "Address": "Україна, Херсонська область, м.Херсон, Старообрядницька вул., 25", "Year": "1919р.", "Changes": "кінець ХІХ ст. – дата спорудження будинку", "Category": "Історія", "Status": "Місцевого значення" }, "geometry": { "type": "Point", "coordinates": [ 32.6094995, 46.6317996 ] } },
{ "type": "Feature", "properties": { "Name": "Житловий будинок (мур.)", "Address": "Україна, Херсонська область, м.Херсон, Старообрядницька вул., 31", "Year": "Середина ХІХ ст.", "Changes": "", "Category": "Архітектура", "Status": "Місцевого значення" }, "geometry": { "type": "Point", "coordinates": [ 32.6078766, 46.631413599999988 ] } },
{ "type": "Feature", "properties": { "Name": "Житловий будинок (мур.)", "Address": "Україна, Херсонська область, м.Херсон, Старообрядницька вул., 33", "Year": "Середина ХІХ ст.", "Changes": "", "Category": "Архітектура", "Status": "Місцевого значення" }, "geometry": { "type": "Point", "coordinates": [ 32.6073957, 46.631293799999987 ] } },
{ "type": "Feature", "properties": { "Name": "Лікарня (мур.)", "Address": "Україна, Херсонська область, м.Херсон, Старообрядницька вул., 35", "Year": "1910-ті рр.", "Changes": "", "Category": "Архітектура", "Status": "Місцевого значення" }, "geometry": { "type": "Point", "coordinates": [ 32.6068516, 46.631068 ] } },
{ "type": "Feature", "properties": { "Name": "Меморіальна дошка на честь Маруша Заруського (католицький костел)", "Address": "Україна, Херсонська область, м.Херсон, Старообрядницька вул., 37", "Year": "1867-1941рр.", "Changes": "", "Category": "Історія", "Status": "Місцевого значення" }, "geometry": { "type": "Point", "coordinates": [ 32.6057998, 46.6308151 ] } },
{ "type": "Feature", "properties": { "Name": "Будинок, де розміщувалась школа О.Г.Гозадінової", "Address": "Україна, Херсонська область, м.Херсон, Кошовий спуск, 17", "Year": "Початок ХХ ст.", "Changes": "", "Category": "Історія", "Status": "Місцевого значення" }, "geometry": { "type": "Point", "coordinates": [ 32.5951129, 46.6279742 ] } },
{ "type": "Feature", "properties": { "Name": "Дуб звичайний \"Дуб черешчатий\"", "Address": "Україна, Херсонська область, м.Херсон, ім.Шевченка парк", "Year": "1869р.", "Changes": "", "Category": "Природи", "Status": "Місцевого значення" }, "geometry": { "type": "Point", "coordinates": [ 32.616867, 46.635417 ] } },
{ "type": "Feature", "properties": { "Name": "Житлова садиба (мур.)", "Address": "Україна, Херсонська область, м.Херсон, Соборна вул., 4", "Year": "Початок ХІХ ст.", "Changes": "", "Category": "Архітектура", "Status": "Місцевого значення" }, "geometry": { "type": "Point", "coordinates": [ 32.6180163, 46.6316578 ] } },
{ "type": "Feature", "properties": { "Name": "Успенський собор (мур.)", "Address": "Україна, Херсонська область, м.Херсон, Соборна вул., 5", "Year": "1784р.", "Changes": "", "Category": "Архітектура", "Status": "Місцевого значення" }, "geometry": { "type": "Point", "coordinates": [ 32.6166168, 46.6312591 ] } },
{ "type": "Feature", "properties": { "Name": "Будинок колишнього окружного суду (мур.)", "Address": "Україна, Херсонська область, м.Херсон, Соборна вул., 9", "Year": "1893р.Кінець ХІХ –початок ХХ ст.", "Changes": "", "Category": "Архітектура та Історія", "Status": "Місцевого значення" }, "geometry": { "type": "Point", "coordinates": [ 32.6103078, 46.629315299999988 ] } },
{ "type": "Feature", "properties": { "Name": "Житловий будинок (мур.)", "Address": "Україна, Херсонська область, м.Херсон, Соборна вул., 10", "Year": "Початок ХІХ ст.", "Changes": "", "Category": "Архітектура", "Status": "Місцевого значення" }, "geometry": { "type": "Point", "coordinates": [ 32.6165414, 46.6313523 ] } },
{ "type": "Feature", "properties": { "Name": "Житловий будинок Анатра (мур.)", "Address": "Україна, Херсонська область, м.Херсон, Соборна вул., 18", "Year": "1905р.", "Changes": "", "Category": "Архітектура", "Status": "Місцевого значення" }, "geometry": { "type": "Point", "coordinates": [ 32.6142025, 46.6309286 ] } },
{ "type": "Feature", "properties": { "Name": "Готель “Європейський” (мур.). Будинок, в якому партизани знищили 12 гітлерівських офіцерів", "Address": "Україна, Херсонська область, м.Херсон, Соборна вул., 26", "Year": "1915р.1941-1945рр.", "Changes": "", "Category": "Архітектура та Історія", "Status": "Місцевого значення" }, "geometry": { "type": "Point", "coordinates": [ 32.6114252, 46.6299885 ] } },
{ "type": "Feature", "properties": { "Name": "Житловий будинок (мур.)", "Address": "Україна, Херсонська область, м.Херсон, Соборна вул., 30", "Year": "Друга половина ХІХ ст.", "Changes": "", "Category": "Архітектура", "Status": "Місцевого значення" }, "geometry": { "type": "Point", "coordinates": [ 32.6108782, 46.6299566 ] } },
{ "type": "Feature", "properties": { "Name": "Конторська будівля (мур.)", "Address": "Україна, Херсонська область, м.Херсон, Соборна вул., 32-Б", "Year": "Початок ХХ ст.", "Changes": "", "Category": "Архітектура", "Status": "Місцевого значення" }, "geometry": { "type": "Point", "coordinates": [ 32.6103463, 46.6298355 ] } },
{ "type": "Feature", "properties": { "Name": "Будинок колишньої Херсонської міської думи (мур.). Місце розгрому загону австро-німецьких загарбників", "Address": "Україна, Херсонська область, м.Херсон, Соборна вул., 34", "Year": "1905р.20 березня 1918р.", "Changes": "", "Category": "Архітектура та Історія", "Status": "Місцевого значення" }, "geometry": { "type": "Point", "coordinates": [ 32.6094375, 46.6299058 ] } },
{ "type": "Feature", "properties": { "Name": "Особняк П.Соколова (мур.)", "Address": "Україна, Херсонська область, м.Херсон, Соборна вул., 36", "Year": "Кінець ХІХ –початок ХХ ст.", "Changes": "", "Category": "Архітектура", "Status": "Місцевого значення" }, "geometry": { "type": "Point", "coordinates": [ 32.6088998, 46.629523299999988 ] } },
{ "type": "Feature", "properties": { "Name": "Пам'ятник Герою Радянського Союзу І.Кулику", "Address": "Україна, Херсонська область, м.Херсон,  Херсонська фортеця парк", "Year": "1966р.", "Changes": "", "Category": "Монументальне мистецтво", "Status": "Місцевого значення" }, "geometry": { "type": "Point", "coordinates": [ 32.6262627, 46.641022 ] } },
{ "type": "Feature", "properties": { "Name": "Дуб звичайний \"Віковий дуб\"", "Address": "Україна, Херсонська область, м.Херсон, Ломоносова вул., 75", "Year": "1890-ті рр.", "Changes": "", "Category": "Природи", "Status": "Місцевого значення" }, "geometry": { "type": "Point", "coordinates": [ 32.5900332, 46.6333037 ] } },
{ "type": "Feature", "properties": { "Name": "Школа, випускники якої загинули на фронтах ВВВ", "Address": "Україна, Херсонська область, м.Херсон, Маяковського пров., 1", "Year": "1941-1945рр.", "Changes": "", "Category": "Історія", "Status": "Місцевого значення" }, "geometry": { "type": "Point", "coordinates": [ 32.6142954, 46.6416463 ] } },
{ "type": "Feature", "properties": { "Name": "Школа, в якій навчалася підпільниця Лілія Біла", "Address": "Україна, Херсонська область, м.Херсон, Гетьмана Сагайдачного вул., 20", "Year": "1941-1945рр.", "Changes": "", "Category": "Історія", "Status": "Місцевого значення" }, "geometry": { "type": "Point", "coordinates": [ 32.6053488, 46.6336719 ] } },
{ "type": "Feature", "properties": { "Name": "Комплекс пам’яток Херсонського меморіального кладовища", "Address": "Україна, Херсонська область, м.Херсон, Молодіжна вул., 1", "Year": "ХVIIIст.–1970-ті рр.", "Changes": "", "Category": "Історія", "Status": "Місцевого значення" }, "geometry": { "type": "Point", "coordinates": [ 32.6126431, 46.64720160000001 ] } },
{ "type": "Feature", "properties": { "Name": "Школа, де навчався Герой Радянського Союзу І. Кулик", "Address": "Україна, Херсонська область, м.Херсон, Молодіжна вул., 33", "Year": "1941р.", "Changes": "1965 р. – дата встановлення меморіальної дошки", "Category": "Історія", "Status": "Місцевого значення" }, "geometry": { "type": "Point", "coordinates": [ 32.6218658, 46.6498515 ] } },
{ "type": "Feature", "properties": { "Name": "Житловий будинок (мур.)", "Address": "Україна, Херсонська область, м.Херсон, Морська вул., 5", "Year": "1900-ті рр.", "Changes": "", "Category": "Архітектура", "Status": "Місцевого значення" }, "geometry": { "type": "Point", "coordinates": [ 32.6210983, 46.6318541 ] } },
{ "type": "Feature", "properties": { "Name": "Пам’ятник на честь нафтовиків, загиблих у боях за нашу Вітчизну у 1941-1945 рр.", "Address": "Україна, Херсонська область, м.Херсон, Нафтовиків вул., 52", "Year": "1941-1945рр.", "Changes": "1967 р. – дата встановлення пам'ятника", "Category": "Історія", "Status": "Місцевого значення" }, "geometry": { "type": "Point", "coordinates": [ 32.5755699, 46.658465799999973 ] } },
{ "type": "Feature", "properties": { "Name": "Жіноча Маріїнська гімназія (мур.)", "Address": "Україна, Херсонська область, м.Херсон, Перекопська вул., 3", "Year": "1896р.", "Changes": "", "Category": "Архітектура", "Status": "Місцевого значення" }, "geometry": { "type": "Point", "coordinates": [ 32.6182664, 46.636339299999989 ] } },
{ "type": "Feature", "properties": { "Name": "Будинок Херсонського відділення колишнього державного банку", "Address": "Україна, Херсонська область, м.Херсон, Перекопська вул., 5", "Year": "1903р.", "Changes": "", "Category": "Архітектура та Історія", "Status": "Місцевого значення" }, "geometry": { "type": "Point", "coordinates": [ 32.6192421, 46.6365324 ] } },
{ "type": "Feature", "properties": { "Name": "Народний будинок (мур.). Будинок, в якому проходив мітинг більшовиків у 1905 році", "Address": "Україна, Херсонська область, м.Херсон, Перекопська вул., 9", "Year": "1904р.1905р.", "Changes": "", "Category": "Архітектура та Історія", "Status": "Місцевого значення" }, "geometry": { "type": "Point", "coordinates": [ 32.6201999, 46.6369696 ] } },
{ "type": "Feature", "properties": { "Name": "Будинок, в якому формувались загони червоноармійців в роки громадянської війни", "Address": "Україна, Херсонська область, м.Херсон, Перекопська вул., 12", "Year": "1918-1919рр.", "Changes": "", "Category": "Історія", "Status": "Місцевого значення" }, "geometry": { "type": "Point", "coordinates": [ 32.6309048, 46.640630599999987 ] } },
{ "type": "Feature", "properties": { "Name": "Будинок, в якому мешкав М.Ф. Чернявський та зупинявся М.М. Коцюбинський", "Address": "Україна, Херсонська область, м.Херсон, Перекопська вул., 18", "Year": "1903-1937рр.", "Changes": "", "Category": "Історія", "Status": "Місцевого значення" }, "geometry": { "type": "Point", "coordinates": [ 32.6316667, 46.641565099999987 ] } },
{ "type": "Feature", "properties": { "Name": "Пам'ятний камінь на честь визволення Херсона від німецько-фашистських загарбників у 1944 р.", "Address": "Україна, Херсонська область, м.Херсон, Перекопська вул.", "Year": "1944р.", "Changes": "1965 р. – встановлено пам'ятний камінь", "Category": "Історія", "Status": "Місцевого значення" }, "geometry": { "type": "Point", "coordinates": [ 32.6440867, 46.6515445 ] } },
{ "type": "Feature", "properties": { "Name": "Монумент на честь 50-річчя Перемоги над фашистською Німеччиною у ВВВ", "Address": "Україна, Херсонська область, м.Херсон, Перемоги пл.", "Year": "1941-1945рр.", "Changes": "", "Category": "Історія", "Status": "Місцевого значення" }, "geometry": { "type": "Point", "coordinates": [ 32.5938615, 46.651662399999985 ] } },
{ "type": "Feature", "properties": { "Name": "Будинок купця Медведєва (мур.)", "Address": "Україна, Херсонська область, м.Херсон, Михайлівська вул., 6", "Year": "1900р.", "Changes": "", "Category": "Архітектура", "Status": "Місцевого значення" }, "geometry": { "type": "Point", "coordinates": [ 32.6181805, 46.6285221 ] } },
{ "type": "Feature", "properties": { "Name": "Пам’ятник на честь воїнів-заводчан, які загинули в роки ВВВ", "Address": "Україна, Херсонська область, м.Херсон, Михайлівська вул., 7", "Year": "1941-1945рр.", "Changes": "1976 р. – дата встановлення пам'ятника", "Category": "Історія", "Status": "Місцевого значення" }, "geometry": { "type": "Point", "coordinates": [ 32.6183574, 46.6282342 ] } },
{ "type": "Feature", "properties": { "Name": "Меморіальна дошка на місці розстрілу радянських військовополонених", "Address": "Україна, Херсонська область, м.Херсон, Купецька вул., 3", "Year": "1941-1945рр.", "Changes": "", "Category": "Історія", "Status": "Місцевого значення" }, "geometry": { "type": "Point", "coordinates": [ 32.5953038, 46.6423047 ] } },
{ "type": "Feature", "properties": { "Name": "Парк обласного ліцею", "Address": "Україна, Херсонська область, м.Херсон, Полтавська вул., 89", "Year": "1868р.", "Changes": "", "Category": "Садово-паркове мистецтво", "Status": "Місцевого значення" }, "geometry": { "type": "Point", "coordinates": [ 32.5614515, 46.638432 ] } },
{ "type": "Feature", "properties": { "Name": "Всіхсвятська церква (мур.)", "Address": "Україна, Херсонська область, м.Херсон, Пугачова вул., 1", "Year": "1808р.", "Changes": "", "Category": "Архітектура", "Status": "Місцевого значення" }, "geometry": { "type": "Point", "coordinates": [ 32.6057087, 46.64786010000001 ] } },
{ "type": "Feature", "properties": { "Name": "Будинок лікарні Є.Є. Діканської", "Address": "Україна, Херсонська область, м.Херсон, Ярослава Мудрого вул., 22", "Year": "Кінець ХІХ-початок ХХ ст.", "Changes": "", "Category": "Історія", "Status": "Місцевого значення" }, "geometry": { "type": "Point", "coordinates": [ 32.61067520000001, 46.6369763 ] } },
{ "type": "Feature", "properties": { "Name": "Житлова садиба (мур.)", "Address": "Україна, Херсонська область, м.Херсон, Ярослава Мудрого вул., 24-26", "Year": "Кінець ХІХ ст.", "Changes": "", "Category": "Архітектура", "Status": "Місцевого значення" }, "geometry": { "type": "Point", "coordinates": [ 32.6102277, 46.6367406 ] } },
{ "type": "Feature", "properties": { "Name": "Житловий будинок (мур.)", "Address": "Україна, Херсонська область, м.Херсон, Ярослава Мудрого вул., 36", "Year": "Початок ХХ ст.", "Changes": "", "Category": "Архітектура", "Status": "Місцевого значення" }, "geometry": { "type": "Point", "coordinates": [ 32.6078272, 46.6362874 ] } },
{ "type": "Feature", "properties": { "Name": "Житловий будинок (мур.)", "Address": "Україна, Херсонська область, м.Херсон, Ярослава Мудрого вул., 38", "Year": "1890-1910рр.", "Changes": "", "Category": "Архітектура", "Status": "Місцевого значення" }, "geometry": { "type": "Point", "coordinates": [ 32.603383, 46.6347404 ] } },
{ "type": "Feature", "properties": { "Name": "Панкратьєвський міст (мур.)", "Address": "Україна, Херсонська область, м.Херсон, Робоча вул.35-37", "Year": "Середина ХІХ ст.", "Changes": "", "Category": "Архітектура", "Status": "Місцевого значення" }, "geometry": { "type": "Point", "coordinates": [ 32.6031687, 46.6397519 ] } },
{ "type": "Feature", "properties": { "Name": "Дуб звичайний \"Дуб на інтенсивці\"", "Address": "Україна, Херсонська область, м.Херсон, Робоча вул., 76-А", "Year": "1856р.", "Changes": "", "Category": "Природи", "Status": "Місцевого значення" }, "geometry": { "type": "Point", "coordinates": [ 32.5891751, 46.646469 ] } },
{ "type": "Feature", "properties": { "Name": "Пам'ятник Маяковському В.В.", "Address": "Україна, Херсонська область, м.Херсон, Стрітенська вул., 17", "Year": "1962р.", "Changes": "", "Category": "Монументальне мистецтво", "Status": "Місцевого значення" }, "geometry": { "type": "Point", "coordinates": [ 32.5855845, 46.6449436 ] } },
{ "type": "Feature", "properties": { "Name": "Пам’ятник на честь студентів та співробітників Херсонського с\/г інституту, які загинули у ВВВ 1941-1945 рр.", "Address": "Україна, Херсонська область, м.Херсон, Стрітенська вул., 23", "Year": "1941-1945рр.", "Changes": "1969 р. – дата встановлення", "Category": "Історія", "Status": "Місцевого значення" }, "geometry": { "type": "Point", "coordinates": [ 32.584541, 46.642395299999983 ] } },
{ "type": "Feature", "properties": { "Name": "Пам'ятник В.І. Леніну", "Address": "Україна, Херсонська область, м.Херсон, Свободи площа", "Year": "1965р.", "Changes": "", "Category": "Історія", "Status": "Місцевого значення" }, "geometry": { "type": "Point", "coordinates": [ 32.6157911, 46.6410971 ] } },
{ "type": "Feature", "properties": { "Name": "Меморіальна дошка на честь художника Г.В. Курнакова", "Address": "Україна, Херсонська область, м.Херсон, Свободи площа, 2", "Year": "1887-1977рр.", "Changes": "", "Category": "Історія", "Status": "Місцевого значення" }, "geometry": { "type": "Point", "coordinates": [ 32.6153742, 46.6395348 ] } },
{ "type": "Feature", "properties": { "Name": "Могила Невідомого солдата", "Address": "Україна, Херсонська область, м.Херсон, Слави парк", "Year": "1941-1945рр.", "Changes": "", "Category": "Історія", "Status": "Місцевого значення" }, "geometry": { "type": "Point", "coordinates": [ 32.6336173, 46.6361031 ] } },
{ "type": "Feature", "properties": { "Name": "Будинок, в якому у 1919 році розташувався штаб підпільного ревкому", "Address": "Україна, Херсонська область, м.Херсон, Качельна вул., 60", "Year": "1919-1920рр.", "Changes": "", "Category": "Історія", "Status": "Місцевого значення" }, "geometry": { "type": "Point", "coordinates": [ 32.5866688, 46.6348104 ] } },
{ "type": "Feature", "properties": { "Name": "Пам'ятник Герою Радянського Союзу З. Космодем'янській", "Address": "Україна, Херсонська область, м.Херсон, Церковна вул., 19", "Year": "1973р.", "Changes": "", "Category": "Монументальне мистецтво", "Status": "Місцевого значення" }, "geometry": { "type": "Point", "coordinates": [ 32.634154, 46.64594550000001 ] } },
{ "type": "Feature", "properties": { "Name": "Пам'ятник Суворову О.В.", "Address": "Україна, Херсонська область, м.Херсон, Суворова вул.", "Year": "1904р.,12вересня1950р.", "Changes": "", "Category": "Історія та Монументальне мистецтво", "Status": "Місцевого значення" }, "geometry": { "type": "Point", "coordinates": [ 32.6102423, 46.6309444 ] } },
{ "type": "Feature", "properties": { "Name": "Будинок, в якому знаходилась штаб-квартира О.В. Суворова", "Address": "Україна, Херсонська область, м.Херсон, Суворова вул., 1-А", "Year": "1792-1794рр.", "Changes": "", "Category": "Історія", "Status": "Місцевого значення" }, "geometry": { "type": "Point", "coordinates": [ 32.6172474, 46.6325635 ] } },
{ "type": "Feature", "properties": { "Name": "Присутні місця", "Address": "Україна, Херсонська область, м.Херсон, Суворова вул., 1--Б", "Year": "1780-ті рр.", "Changes": "", "Category": "Архітектура", "Status": "Місцевого значення" }, "geometry": { "type": "Point", "coordinates": [ 32.6122669, 46.631631 ] } },
{ "type": "Feature", "properties": { "Name": "Брама клубу “Трудові резерви” (мур.)", "Address": "Україна, Херсонська область, м.Херсон, Суворова вул., 3", "Year": "1950р.", "Changes": "", "Category": "Архітектура", "Status": "Місцевого значення" }, "geometry": { "type": "Point", "coordinates": [ 32.6163505, 46.6322612 ] } },
{ "type": "Feature", "properties": { "Name": "Житловий будинок (мур.)", "Address": "Україна, Херсонська область, м.Херсон, Суворова вул., 5", "Year": "Середина ХІХ ст.", "Changes": "", "Category": "Архітектура", "Status": "Місцевого значення" }, "geometry": { "type": "Point", "coordinates": [ 32.6157414, 46.6320983 ] } },
{ "type": "Feature", "properties": { "Name": "Житловий будинок (мур.). Школа, де навчався Герой Радянського Союзу Л.Л. Вінер", "Address": "Україна, Херсонська область, м.Херсон, Суворова вул., 6", "Year": "Перша половина ХІХ ст.1930-1937рр.", "Changes": "", "Category": "Архітектура та Історія", "Status": "Місцевого значення" }, "geometry": { "type": "Point", "coordinates": [ 32.6157556, 46.632535399999988 ] } },
{ "type": "Feature", "properties": { "Name": "Житловий будинок (мур.)", "Address": "Україна, Херсонська область, м.Херсон, Суворова вул., 8", "Year": "1890-ті рр.", "Changes": "", "Category": "Архітектура", "Status": "Місцевого значення" }, "geometry": { "type": "Point", "coordinates": [ 32.614915, 46.6323622 ] } },
{ "type": "Feature", "properties": { "Name": "Житловий будинок (мур.)", "Address": "Україна, Херсонська область, м.Херсон, Суворова вул., 9", "Year": "1950-ті рр.", "Changes": "", "Category": "Архітектура", "Status": "Місцевого значення" }, "geometry": { "type": "Point", "coordinates": [ 32.6150221, 46.631991499999984 ] } },
{ "type": "Feature", "properties": { "Name": "Брама (мур.)", "Address": "Україна, Херсонська область, м.Херсон, Суворова вул., 17-19", "Year": "Друга половина ХІХ ст.", "Changes": "", "Category": "Архітектура", "Status": "Місцевого значення" }, "geometry": { "type": "Point", "coordinates": [ 32.6124057, 46.631313099999986 ] } },
{ "type": "Feature", "properties": { "Name": "Будинок житловий (банк)", "Address": "Україна, Херсонська область, м.Херсон, Суворова вул., 21", "Year": "1910-ті рр.", "Changes": "", "Category": "Архітектура", "Status": "Місцевого значення" }, "geometry": { "type": "Point", "coordinates": [ 32.6112968, 46.6313504 ] } },
{ "type": "Feature", "properties": { "Name": "Будинок купця (мур.)", "Address": "Україна, Херсонська область, м.Херсон, Суворова вул., 22", "Year": "Друга половина ХІХ ст.", "Changes": "", "Category": "Архітектура", "Status": "Місцевого значення" }, "geometry": { "type": "Point", "coordinates": [ 32.612267, 46.6316308 ] } },
{ "type": "Feature", "properties": { "Name": "Будинок, у якому в 1917 році містився Військово-революційний комітет м. Херсона", "Address": "Україна, Херсонська область, м.Херсон, Суворова вул., 24", "Year": "1917р.", "Changes": "", "Category": "Історія", "Status": "Місцевого значення" }, "geometry": { "type": "Point", "coordinates": [ 32.6119659, 46.63153770000001 ] } },
{ "type": "Feature", "properties": { "Name": "Житловий будинок (мур.)", "Address": "Україна, Херсонська область, м.Херсон, Суворова вул., 25", "Year": "Початок ХХ ст.", "Changes": "", "Category": "Архітектура", "Status": "Місцевого значення" }, "geometry": { "type": "Point", "coordinates": [ 32.6110525, 46.6309672 ] } },
{ "type": "Feature", "properties": { "Name": "Житловий будинок (мур.)", "Address": "Україна, Херсонська область, м.Херсон, Суворова вул., 28", "Year": "1913р.", "Changes": "", "Category": "Архітектура", "Status": "Місцевого значення" }, "geometry": { "type": "Point", "coordinates": [ 32.6103745, 46.6312047 ] } },
{ "type": "Feature", "properties": { "Name": "Місце страти херсонських підпільників", "Address": "Україна, Херсонська область, м.Херсон, Суворова вул., 29", "Year": "1941–1945рр.", "Changes": "", "Category": "Історія", "Status": "Місцевого значення" }, "geometry": { "type": "Point", "coordinates": [ 32.6101326, 46.6304198 ] } },
{ "type": "Feature", "properties": { "Name": "Житловий будинок (мур.)", "Address": "Україна, Херсонська область, м.Херсон, Суворова вул., 31-А", "Year": "Початок ХІХ ст.", "Changes": "", "Category": "Архітектура", "Status": "Місцевого значення" }, "geometry": { "type": "Point", "coordinates": [ 32.6086342, 46.630414599999988 ] } },
{ "type": "Feature", "properties": { "Name": "Житловий будинок (будинок Сербінова)", "Address": "Україна, Херсонська область, м.Херсон, Суворова вул., 35", "Year": "1909р.", "Changes": "", "Category": "Архітектура", "Status": "Місцевого значення" }, "geometry": { "type": "Point", "coordinates": [ 32.607526, 46.6300326 ] } },
{ "type": "Feature", "properties": { "Name": "Банк (мур.). Будинок колишнього банку Товариства взаємного кредитування", "Address": "Україна, Херсонська область, м.Херсон, Суворова вул., 37", "Year": "1894р.Кінець ХІХ-початок ХХ ст.", "Changes": "", "Category": "Архітектура та Історія", "Status": "Місцевого значення" }, "geometry": { "type": "Point", "coordinates": [ 32.6068633, 46.6300549 ] } },
{ "type": "Feature", "properties": { "Name": "Лікарня (мур.)", "Address": "Україна, Херсонська область, м.Херсон, Суворова вул., 40", "Year": "Кінець ХІХ ст.", "Changes": "", "Category": "Архітектура", "Status": "Місцевого значення" }, "geometry": { "type": "Point", "coordinates": [ 32.603868, 46.6310113 ] } },
{ "type": "Feature", "properties": { "Name": "Житловий будинок (мур.)", "Address": "Україна, Херсонська область, м.Херсон, Суворова вул., 51", "Year": "1910р.", "Changes": "", "Category": "Архітектура", "Status": "Місцевого значення" }, "geometry": { "type": "Point", "coordinates": [ 32.6033823, 46.6307458 ] } },
{ "type": "Feature", "properties": { "Name": "Будинок, в якому розташовувався госпіталь в період Кримської війни", "Address": "Україна, Херсонська область, м.Херсон, Сухарна вул., 9", "Year": "Кінець ХІХ-початок ХХ ст.", "Changes": "", "Category": "Історія", "Status": "Місцевого значення" }, "geometry": { "type": "Point", "coordinates": [ 32.5808536, 46.6366741 ] } },
{ "type": "Feature", "properties": { "Name": "Пам'ятник Шевченку Т.Г.", "Address": "Україна, Херсонська область, м.Херсон, Текстильників пр.", "Year": "1971р.", "Changes": "", "Category": "Монументальне мистецтво", "Status": "Місцевого значення" }, "geometry": { "type": "Point", "coordinates": [ 32.6460961, 46.655462 ] } },
{ "type": "Feature", "properties": { "Name": "Пам'ятник на честь працівників ПТС, загиблих на фронтах війни", "Address": "Україна, Херсонська область, м.Херсон, ТЕЦ р-н.", "Year": "1941–1945рр.", "Changes": "1970 р. – встановлено пам'ятник", "Category": "Історія", "Status": "Місцевого значення" }, "geometry": { "type": "Point", "coordinates": [ 32.6496762, 46.6750305 ] } },
{ "type": "Feature", "properties": { "Name": "Пам’ятник жертвам тоталітарного режиму", "Address": "Україна, Херсонська область, м.Херсон, Тираспольська вул.", "Year": "30-50рр. ХХ ст.", "Changes": "1993 р.", "Category": "Історія", "Status": "Місцевого значення" }, "geometry": { "type": "Point", "coordinates": [ 32.6176725, 46.647076899999981 ] } },
{ "type": "Feature", "properties": { "Name": "Пам'ятник на честь працівників заводу, загиблих в роки війни", "Address": "Україна, Херсонська область, м.Херсон, Тираспольська вул., 1", "Year": "1941–1945рр.", "Changes": "1967 р. – встановлено пам'ятник", "Category": "Історія", "Status": "Місцевого значення" }, "geometry": { "type": "Point", "coordinates": [ 32.6199412, 46.642525 ] } },
{ "type": "Feature", "properties": { "Name": "Пам’ятник першим корабелам Чорноморського флоту", "Address": "Україна, Херсонська область, м.Херсон, Тутушкіна пл.", "Year": "1783р.", "Changes": "1972 р. – встановлення пам’ятника", "Category": "Історія та Монументальне мистецтво", "Status": "Місцевого значення" }, "geometry": { "type": "Point", "coordinates": [ 32.6211254, 46.6274518 ] } },
{ "type": "Feature", "properties": { "Name": "Будинок управління робіт Херсонського порту (мур.)", "Address": "Україна, Херсонська область, м.Херсон, Ушакова пр-т., 4", "Year": "1902р.", "Changes": "", "Category": "Архітектура", "Status": "Місцевого значення" }, "geometry": { "type": "Point", "coordinates": [ 32.6203659, 46.63036850000001 ] } },
{ "type": "Feature", "properties": { "Name": "Житловий будинок (мур.)", "Address": "Україна, Херсонська область, м.Херсон, Ушакова пр-т., 12", "Year": "1950-ті рр.", "Changes": "", "Category": "Архітектура", "Status": "Місцевого значення" }, "geometry": { "type": "Point", "coordinates": [ 32.618784, 46.6321703 ] } },
{ "type": "Feature", "properties": { "Name": "Житловий будинок (мур.)", "Address": "Україна, Херсонська область, м.Херсон, Ушакова пр-т., 13", "Year": "1950-ті рр.", "Changes": "", "Category": "Архітектура", "Status": "Місцевого значення" }, "geometry": { "type": "Point", "coordinates": [ 32.6083694, 46.6502823 ] } },
{ "type": "Feature", "properties": { "Name": "Морехідне училище (мур.)", "Address": "Україна, Херсонська область, м.Херсон, Ушакова пр-т., 14", "Year": "1953р.", "Changes": "", "Category": "Архітектура", "Status": "Місцевого значення" }, "geometry": { "type": "Point", "coordinates": [ 32.6174387, 46.6358753 ] } },
{ "type": "Feature", "properties": { "Name": "Житловий будинок (мур.)", "Address": "Україна, Херсонська область, м.Херсон, Ушакова пр-т., 15", "Year": "1953р.", "Changes": "", "Category": "Архітектура", "Status": "Місцевого значення" }, "geometry": { "type": "Point", "coordinates": [ 32.6184238, 46.6320616 ] } },
{ "type": "Feature", "properties": { "Name": "Будинок, у якому в 1891 році зупинявся О.М. Горький", "Address": "Україна, Херсонська область, м.Херсон, Ушакова пр-т., 16", "Year": "1891р.", "Changes": "", "Category": "Історія", "Status": "Місцевого значення" }, "geometry": { "type": "Point", "coordinates": [ 32.6168691, 46.6364702 ] } },
{ "type": "Feature", "properties": { "Name": "Меморіальна дошка на честь Кушнаренка К.К.", "Address": "Україна, Херсонська область, м.Херсон, Ушакова пр-т., 20", "Year": "1906-1990рр.", "Changes": "", "Category": "Історія", "Status": "Місцевого значення" }, "geometry": { "type": "Point", "coordinates": [ 32.6163726, 46.6377014 ] } },
{ "type": "Feature", "properties": { "Name": "Лікарня Російського товариства Червоного хреста (мур.)", "Address": "Україна, Херсонська область, м.Херсон, Ушакова пр-т., 22", "Year": "1914р.", "Changes": "", "Category": "Архітектура", "Status": "Місцевого значення" }, "geometry": { "type": "Point", "coordinates": [ 32.6168014, 46.63849 ] } },
{ "type": "Feature", "properties": { "Name": "Житловий будинок (мур.)", "Address": "Україна, Херсонська область, м.Херсон, Ушакова пр-т, 27", "Year": "1900-ті рр.", "Changes": "", "Category": "Архітектура", "Status": "Місцевого значення" }, "geometry": { "type": "Point", "coordinates": [ 32.6161355, 46.635926300000015 ] } },
{ "type": "Feature", "properties": { "Name": "Пам'ятний знак на честь робітників заводу карданних валів, які загинули в роки ВВВ", "Address": "Україна, Херсонська область, м.Херсон, Олександрівська вул., 26", "Year": "1941-1945рр.", "Changes": "", "Category": "Історія", "Status": "Місцевого значення" }, "geometry": { "type": "Point", "coordinates": [ 32.6012934, 46.644452 ] } },
{ "type": "Feature", "properties": { "Name": "Пам'ятний камінь на місці загибелі 1276 радянських громадян – жертв фашизму", "Address": "Україна, Херсонська область, м.Херсон, Гімназична вул.", "Year": "1941–1945рр.", "Changes": "", "Category": "Історія", "Status": "Місцевого значення" }, "geometry": { "type": "Point", "coordinates": [ 32.6262639, 46.6344889 ] } },
{ "type": "Feature", "properties": { "Name": "Житловий будинок (мур.)", "Address": "Україна, Херсонська область, м.Херсон, Гімназична вул., 6", "Year": "1890-ті рр.", "Changes": "", "Category": "Архітектура", "Status": "Місцевого значення" }, "geometry": { "type": "Point", "coordinates": [ 32.6206033, 46.6321434 ] } },
{ "type": "Feature", "properties": { "Name": "Пивоварний завод", "Address": "Україна, Херсонська область, м.Херсон, Гімназична вул., 34", "Year": "Кінець ХІХ ст.-1906р.", "Changes": "", "Category": "Архітектура", "Status": "Місцевого значення" }, "geometry": { "type": "Point", "coordinates": [ 32.6292579, 46.6359401 ] } },
{ "type": "Feature", "properties": { "Name": "Будинок, в якому виступав з лекціями Д.І. Яворницький", "Address": "Україна, Херсонська область, м.Херсон, Бородицька вул., 7", "Year": "ХІХ –початок ХХ ст.", "Changes": "", "Category": "Історія", "Status": "Місцевого значення" }, "geometry": { "type": "Point", "coordinates": [ 32.6174204, 46.6292065 ] } },
{ "type": "Feature", "properties": { "Name": "Арсенал (мур.)", "Address": "Україна, Херсонська область, м.Херсон, вул. Перекопська, 10", "Year": "1784р.", "Changes": "", "Category": "Архітектура", "Status": "Національного значення" }, "geometry": { "type": "Point", "coordinates": [ 32.6261357, 46.6384734 ] } },
{ "type": "Feature", "properties": { "Name": "Греко-Софіївська церква (мур.)", "Address": "Україна, Херсонська область, м.Херсон, вул. Богородицька, 13", "Year": "1780о", "Changes": "", "Category": "Архітектура", "Status": "Національного значення" }, "geometry": { "type": "Point", "coordinates": [ 32.6155728, 46.6287873 ] } },
{ "type": "Feature", "properties": { "Name": "Резиденція губернатора (мур.)", "Address": "Україна, Херсонська область, м.Херсон, вул. Петра Калнишевського, 4\/14", "Year": "1905р.", "Changes": "", "Category": "Архітектура", "Status": "Національного значення" }, "geometry": { "type": "Point", "coordinates": [ 32.623928, 46.6339415 ] } }
]
}
